{
"type": "FeatureCollection",
"crs": { "type": "name", "properties": { "name": "urn:ogc:def:crs:OGC:1.3:CRS84" } },
"features": [
{ "type": "Feature", "properties": { "Address": "595 BAY STREET", "City": "Toronto", "Province": "Ontario", "latitude": 43.65621, "longitude": -79.38326, "name": "595 BAY STREET, Toronto, Ontario", "desc": "595 Bay St, Toronto, ON M5G 2C2, Canada", "source": "Bing Maps", "precision": "address" }, "geometry": { "type": "Point", "coordinates": [ -79.38326, 43.65621 ] } },
{ "type": "Feature", "properties": { "Address": "100 KING STREET WEST", "City": "Toronto", "Province": "Ontario", "latitude": 43.64877, "longitude": -79.38167, "name": "100 KING STREET WEST, Toronto, Ontario", "desc": "100 King St W, Toronto, ON M5X, Canada", "source": "Bing Maps", "precision": "address" }, "geometry": { "type": "Point", "coordinates": [ -79.38167, 43.64877 ] } },
{ "type": "Feature", "properties": { "Address": "200 BAY STREET", "City": "Toronto", "Province": "Ontario", "latitude": 43.64629, "longitude": -79.37971, "name": "200 BAY STREET, Toronto, Ontario", "desc": "200 Bay St, Toronto, ON M5J, Canada", "source": "Bing Maps", "precision": "address" }, "geometry": { "type": "Point", "coordinates": [ -79.37971, 43.64629 ] } },
{ "type": "Feature", "properties": { "Address": "777 BAY STREET", "City": "Toronto", "Province": "Ontario", "latitude": 43.660323, "longitude": -79.385445, "name": "777 BAY STREET, Toronto, Ontario", "desc": "777 Bay St, Toronto, ON M5G 2C8, Canada", "source": "Bing Maps", "precision": "address" }, "geometry": { "type": "Point", "coordinates": [ -79.385445, 43.660323 ] } },
{ "type": "Feature", "properties": { "Address": "87 FRONT STREET E.", "City": "Toronto", "Province": "Ontario", "latitude": 43.64875, "longitude": -79.3721599, "name": "87 FRONT STREET E., Toronto, Ontario", "desc": "87 Front St E, Toronto, ON M5E 1B8, Canada", "source": "Bing Maps", "precision": "address" }, "geometry": { "type": "Point", "coordinates": [ -79.3721599, 43.64875 ] } },
{ "type": "Feature", "properties": { "Address": "60 CARLTON ST (SECOND FLOOR)", "City": "Toronto", "Province": "Ontario", "latitude": 43.66198, "longitude": -79.37985, "name": "60 CARLTON ST (SECOND FLOOR), Toronto, Ontario", "desc": "60 Carlton St, Toronto, ON M5B 1J2, Canada", "source": "Bing Maps", "precision": "address" }, "geometry": { "type": "Point", "coordinates": [ -79.37985, 43.66198 ] } },
{ "type": "Feature", "properties": { "Address": "15 YORK STREET", "City": "Toronto", "Province": "Ontario", "latitude": 43.64234, "longitude": -79.38083, "name": "15 YORK STREET, Toronto, Ontario", "desc": "15 York St, Toronto, ON M5J 0A3, Canada", "source": "Bing Maps", "precision": "address" }, "geometry": { "type": "Point", "coordinates": [ -79.38083, 43.64234 ] } },
{ "type": "Feature", "properties": { "Address": "337 SPADINA AVENUE", "City": "Toronto", "Province": "Ontario", "latitude": 43.65486, "longitude": -79.39841, "name": "337 SPADINA AVENUE, Toronto, Ontario", "desc": "337 Spadina Ave, Toronto, ON M5T 2E9, Canada", "source": "Bing Maps", "precision": "address" }, "geometry": { "type": "Point", "coordinates": [ -79.39841, 43.65486 ] } },
{ "type": "Feature", "properties": { "Address": "547 YONGE STREET", "City": "Toronto", "Province": "Ontario", "latitude": 43.6646365, "longitude": -79.3842506, "name": "547 YONGE STREET, Toronto, Ontario", "desc": "547 Yonge St, Toronto, ON M4Y 1Y5, Canada", "source": "Bing Maps", "precision": "address" }, "geometry": { "type": "Point", "coordinates": [ -79.3842506, 43.6646365 ] } },
{ "type": "Feature", "properties": { "Address": "415 KING STREET WEST", "City": "Toronto", "Province": "Ontario", "latitude": 43.64529, "longitude": -79.39437, "name": "415 KING STREET WEST, Toronto, Ontario", "desc": "415 King St W, Toronto, ON M5V 1K1, Canada", "source": "Bing Maps", "precision": "address" }, "geometry": { "type": "Point", "coordinates": [ -79.39437, 43.64529 ] } },
{ "type": "Feature", "properties": { "Address": "2 COOPER STREET", "City": "Toronto", "Province": "Ontario", "latitude": 43.64319, "longitude": -79.37174, "name": "2 COOPER STREET, Toronto, Ontario", "desc": "2 Cooper St, Toronto, ON M5E 0B8, Canada", "source": "Bing Maps", "precision": "address" }, "geometry": { "type": "Point", "coordinates": [ -79.37174, 43.64319 ] } },
{ "type": "Feature", "properties": { "Address": "222 FRONT STREET EAST", "City": "Toronto", "Province": "Ontario", "latitude": 43.65111, "longitude": -79.36545, "name": "222 FRONT STREET EAST, Toronto, Ontario", "desc": "222 Front St E, Toronto, ON M5A 4T9, Canada", "source": "Bing Maps", "precision": "address" }, "geometry": { "type": "Point", "coordinates": [ -79.36545, 43.65111 ] } },
{ "type": "Feature", "properties": { "Address": "619 QUEEN STREET WEST", "City": "Toronto", "Province": "Ontario", "latitude": 43.64728, "longitude": -79.40272, "name": "619 QUEEN STREET WEST, Toronto, Ontario", "desc": "619 Queen St W, Toronto, ON M5V 2B7, Canada", "source": "Bing Maps", "precision": "address" }, "geometry": { "type": "Point", "coordinates": [ -79.40272, 43.64728 ] } },
{ "type": "Feature", "properties": { "Address": "512 PARLIAMENT STREET A", "City": "Toronto", "Province": "Ontario", "latitude": 43.6655299, "longitude": -79.36878, "name": "512 PARLIAMENT STREET A, Toronto, Ontario", "desc": "512 Parliament St, Toronto, ON M4X 1P4, Canada", "source": "Bing Maps", "precision": "address" }, "geometry": { "type": "Point", "coordinates": [ -79.36878, 43.6655299 ] } },
{ "type": "Feature", "properties": { "Address": "55 BLOOR STREET WEST", "City": "Toronto", "Province": "Ontario", "latitude": 43.66963, "longitude": -79.38864, "name": "55 BLOOR STREET WEST, Toronto, Ontario", "desc": "55 Bloor St W, Toronto, ON M4W, Canada", "source": "Bing Maps", "precision": "address" }, "geometry": { "type": "Point", "coordinates": [ -79.38864, 43.66963 ] } },
{ "type": "Feature", "properties": { "Address": "20 BLOOR STREET EAST", "City": "Toronto", "Province": "Ontario", "latitude": 43.67075, "longitude": -79.3854, "name": "20 BLOOR STREET EAST, Toronto, Ontario", "desc": "20 Bloor St E, Toronto, ON M4W 3G7, Canada", "source": "Bing Maps", "precision": "address" }, "geometry": { "type": "Point", "coordinates": [ -79.3854, 43.67075 ] } },
{ "type": "Feature", "properties": { "Address": "549 COLLEGE STREET", "City": "Toronto", "Province": "Ontario", "latitude": 43.65532, "longitude": -79.41176, "name": "549 COLLEGE STREET, Toronto, Ontario", "desc": "549 College St, Toronto, ON M6G 1A9, Canada", "source": "Bing Maps", "precision": "address" }, "geometry": { "type": "Point", "coordinates": [ -79.41176, 43.65532 ] } },
{ "type": "Feature", "properties": { "Address": "776 QUEEN STREET EAST", "City": "Toronto", "Province": "Ontario", "latitude": 43.6595846, "longitude": -79.3472403, "name": "776 QUEEN STREET EAST, Toronto, Ontario", "desc": "776 Queen St E, Toronto, ON M4M 1H4, Canada", "source": "Bing Maps", "precision": "address" }, "geometry": { "type": "Point", "coordinates": [ -79.3472403, 43.6595846 ] } },
{ "type": "Feature", "properties": { "Address": "232 DUPONT STREET", "City": "Toronto", "Province": "Ontario", "latitude": 43.67543, "longitude": -79.40558, "name": "232 DUPONT STREET, Toronto, Ontario", "desc": "232 Dupont St, Toronto, ON M5R 1V7, Canada", "source": "Bing Maps", "precision": "address" }, "geometry": { "type": "Point", "coordinates": [ -79.40558, 43.67543 ] } },
{ "type": "Feature", "properties": { "Address": "10 SCRIVENER SQUARE", "City": "Toronto", "Province": "Ontario", "latitude": 43.68079, "longitude": -79.3905, "name": "10 SCRIVENER SQUARE, Toronto, Ontario", "desc": "10 Scrivener Sq, Toronto, ON M4W 3Y9, Canada", "source": "Bing Maps", "precision": "address" }, "geometry": { "type": "Point", "coordinates": [ -79.3905, 43.68079 ] } },
{ "type": "Feature", "properties": { "Address": "1230 DUNDAS STREET WEST", "City": "Toronto", "Province": "Ontario", "latitude": 43.64965, "longitude": -79.4235099, "name": "1230 DUNDAS STREET WEST, Toronto, Ontario", "desc": "1230 Dundas St W, Toronto, ON M6J 1X5, Canada", "source": "Bing Maps", "precision": "address" }, "geometry": { "type": "Point", "coordinates": [ -79.4235099, 43.64965 ] } },
{ "type": "Feature", "properties": { "Address": "85 HANNA AVENUE", "City": "Toronto", "Province": "Ontario", "latitude": 43.64007, "longitude": -79.41982, "name": "85 HANNA AVENUE, Toronto, Ontario", "desc": "85 Hanna Ave, Toronto, ON M6K 3S3, Canada", "source": "Bing Maps", "precision": "address" }, "geometry": { "type": "Point", "coordinates": [ -79.41982, 43.64007 ] } },
{ "type": "Feature", "properties": { "Address": "200 DANFORTH AVENUE", "City": "Toronto", "Province": "Ontario", "latitude": 43.677, "longitude": -79.35608, "name": "200 DANFORTH AVENUE, Toronto, Ontario", "desc": "200 Danforth Ave, Toronto, ON M4K 1N5, Canada", "source": "Bing Maps", "precision": "address" }, "geometry": { "type": "Point", "coordinates": [ -79.35608, 43.677 ] } },
{ "type": "Feature", "properties": { "Address": "879 BLOOR STREET WEST", "City": "Toronto", "Province": "Ontario", "latitude": 43.6618799, "longitude": -79.42504, "name": "879 BLOOR STREET WEST, Toronto, Ontario", "desc": "879 Bloor St W, Toronto, ON M6G 1M4, Canada", "source": "Bing Maps", "precision": "address" }, "geometry": { "type": "Point", "coordinates": [ -79.42504, 43.6618799 ] } },
{ "type": "Feature", "properties": { "Address": "932 GERRARD STREET EAST", "City": "Toronto", "Province": "Ontario", "latitude": 43.6682, "longitude": -79.34124, "name": "932 GERRARD STREET EAST, Toronto, Ontario", "desc": "932 Gerrard St E, Toronto, ON M4M 1Z2, Canada", "source": "Bing Maps", "precision": "address" }, "geometry": { "type": "Point", "coordinates": [ -79.34124, 43.6682 ] } },
{ "type": "Feature", "properties": { "Address": "111 ST. CLAIR AVENUE WEST", "City": "Toronto", "Province": "Ontario", "latitude": 43.68666, "longitude": -79.3994, "name": "111 ST. CLAIR AVENUE WEST, Toronto, Ontario", "desc": "111 St Clair Ave W, Toronto, ON M4V 1N5, Canada", "source": "Bing Maps", "precision": "address" }, "geometry": { "type": "Point", "coordinates": [ -79.3994, 43.68666 ] } },
{ "type": "Feature", "properties": { "Address": "1357 QUEEN ST. W.", "City": "Toronto", "Province": "Ontario", "latitude": 43.6407, "longitude": -79.43486, "name": "1357 QUEEN ST. W., Toronto, Ontario", "desc": "1357 Queen St W, Toronto, ON M6K 1M1, Canada", "source": "Bing Maps", "precision": "address" }, "geometry": { "type": "Point", "coordinates": [ -79.43486, 43.6407 ] } },
{ "type": "Feature", "properties": { "Address": "396 ST. CLAIR AVE. WEST", "City": "Toronto", "Province": "Ontario", "latitude": 43.68408, "longitude": -79.41527, "name": "396 ST. CLAIR AVE. WEST, Toronto, Ontario", "desc": "396 St Clair Ave W, Toronto, ON M5P 1N4, Canada", "source": "Bing Maps", "precision": "address" }, "geometry": { "type": "Point", "coordinates": [ -79.41527, 43.68408 ] } },
{ "type": "Feature", "properties": { "Address": "420 SPADINA ROAD", "City": "Toronto", "Province": "Ontario", "latitude": 43.68883, "longitude": -79.413, "name": "420 SPADINA ROAD, Toronto, Ontario", "desc": "420 Spadina Rd, Toronto, ON M5P 2W4, Canada", "source": "Bing Maps", "precision": "address" }, "geometry": { "type": "Point", "coordinates": [ -79.413, 43.68883 ] } },
{ "type": "Feature", "properties": { "Address": "1245 DUPONT STREET", "City": "Toronto", "Province": "Ontario", "latitude": 43.66751, "longitude": -79.44172, "name": "1245 DUPONT STREET, Toronto, Ontario", "desc": "1245 Dupont St, Toronto, ON M6H 2A5, Canada", "source": "Bing Maps", "precision": "address" }, "geometry": { "type": "Point", "coordinates": [ -79.44172, 43.66751 ] } },
{ "type": "Feature", "properties": { "Address": "908 ST. CLAIR AVENUE WEST", "City": "Toronto", "Province": "Ontario", "latitude": 43.68023, "longitude": -79.43392, "name": "908 ST. CLAIR AVENUE WEST, Toronto, Ontario", "desc": "908 St Clair Ave W, Toronto, ON M6C 1C6, Canada", "source": "Bing Maps", "precision": "address" }, "geometry": { "type": "Point", "coordinates": [ -79.43392, 43.68023 ] } },
{ "type": "Feature", "properties": { "Address": "1145 DANFORTH AVENUE", "City": "Toronto", "Province": "Ontario", "latitude": 43.681, "longitude": -79.33329, "name": "1145 DANFORTH AVENUE, Toronto, Ontario", "desc": "1145 Danforth Ave, Toronto, ON M4J 1M5, Canada", "source": "Bing Maps", "precision": "address" }, "geometry": { "type": "Point", "coordinates": [ -79.33329, 43.681 ] } },
{ "type": "Feature", "properties": { "Address": "2290 DUNDAS STREET WEST", "City": "Toronto", "Province": "Ontario", "latitude": 43.65507, "longitude": -79.45178, "name": "2290 DUNDAS STREET WEST, Toronto, Ontario", "desc": "2290 Dundas St W, Toronto, ON M6R 1X4, Canada", "source": "Bing Maps", "precision": "address" }, "geometry": { "type": "Point", "coordinates": [ -79.45178, 43.65507 ] } },
{ "type": "Feature", "properties": { "Address": "1654 QUEEN STREET EAST", "City": "Toronto", "Province": "Ontario", "latitude": 43.667, "longitude": -79.31484, "name": "1654 QUEEN STREET EAST, Toronto, Ontario", "desc": "1654 Queen St E, Toronto, ON M4L 1G3, Canada", "source": "Bing Maps", "precision": "address" }, "geometry": { "type": "Point", "coordinates": [ -79.31484, 43.667 ] } },
{ "type": "Feature", "properties": { "Address": "1524 BAYVIEW AVENUE", "City": "Toronto", "Province": "Ontario", "latitude": 43.7040067, "longitude": -79.3746908, "name": "1524 BAYVIEW AVENUE, Toronto, Ontario", "desc": "1524 Bayview Ave, Toronto, ON M4G 3B4, Canada", "source": "Bing Maps", "precision": "address" }, "geometry": { "type": "Point", "coordinates": [ -79.3746908, 43.7040067 ] } },
{ "type": "Feature", "properties": { "Address": "333 EGLINTON AVENUE WEST", "City": "Toronto", "Province": "Ontario", "latitude": 43.70421, "longitude": -79.40912, "name": "333 EGLINTON AVENUE WEST, Toronto, Ontario", "desc": "333 Eglinton Ave W, Toronto, ON M5N 1A1, Canada", "source": "Bing Maps", "precision": "address" }, "geometry": { "type": "Point", "coordinates": [ -79.40912, 43.70421 ] } },
{ "type": "Feature", "properties": { "Address": "101 EGLINTON AVENUE EAST", "City": "Toronto", "Province": "Ontario", "latitude": 43.7072, "longitude": -79.39454, "name": "101 EGLINTON AVENUE EAST, Toronto, Ontario", "desc": "101 Eglinton Ave E, Toronto, ON M4P 1H4, Canada", "source": "Bing Maps", "precision": "address" }, "geometry": { "type": "Point", "coordinates": [ -79.39454, 43.7072 ] } },
{ "type": "Feature", "properties": { "Address": "2300 YONGE STREET", "City": "Toronto", "Province": "Ontario", "latitude": 43.70716, "longitude": -79.39904, "name": "2300 YONGE STREET, Toronto, Ontario", "desc": "2300 Yonge St, Toronto, ON M4P 1E4, Canada", "source": "Bing Maps", "precision": "address" }, "geometry": { "type": "Point", "coordinates": [ -79.39904, 43.70716 ] } },
{ "type": "Feature", "properties": { "Address": "2803 DUNDAS ST W TORONTO", "City": "Toronto", "Province": "Ontario", "latitude": 43.66519, "longitude": -79.46287, "name": "2803 DUNDAS ST W TORONTO, Toronto, Ontario", "desc": "2803 Dundas St W, Toronto, ON M6P 1Y6, Canada", "source": "Bing Maps", "precision": "address" }, "geometry": { "type": "Point", "coordinates": [ -79.46287, 43.66519 ] } },
{ "type": "Feature", "properties": { "Address": "1009 COXWELL AVE", "City": "Toronto", "Province": "Ontario", "latitude": 43.6969, "longitude": -79.32869, "name": "1009 COXWELL AVE, Toronto, Ontario", "desc": "1009 Coxwell Ave, East York, ON M4C 3G4, Canada", "source": "Bing Maps", "precision": "address" }, "geometry": { "type": "Point", "coordinates": [ -79.32869, 43.6969 ] } },
{ "type": "Feature", "properties": { "Address": "65 WICKSTEED AVENUE", "City": "Toronto", "Province": "Ontario", "latitude": 43.71053, "longitude": -79.36174, "name": "65 WICKSTEED AVENUE, Toronto, Ontario", "desc": "65 Wicksteed Ave, East York, ON M4G 4H9, Canada", "source": "Bing Maps", "precision": "address" }, "geometry": { "type": "Point", "coordinates": [ -79.36174, 43.71053 ] } },
{ "type": "Feature", "properties": { "Address": "45 OVERLEA BOULEVARD", "City": "Toronto", "Province": "Ontario", "latitude": 43.70496, "longitude": -79.349548, "name": "45 OVERLEA BOULEVARD, Toronto, Ontario", "desc": "45 Overlea Blvd, Toronto, ON M4H 1C3, Canada", "source": "Bing Maps", "precision": "address" }, "geometry": { "type": "Point", "coordinates": [ -79.349548, 43.70496 ] } },
{ "type": "Feature", "properties": { "Address": "1986 QUEEN STREET EAST", "City": "Toronto", "Province": "Ontario", "latitude": 43.67019, "longitude": -79.30046, "name": "1986 QUEEN STREET EAST, Toronto, Ontario", "desc": "1986 Queen St E, Toronto, ON M4L 1J2, Canada", "source": "Bing Maps", "precision": "address" }, "geometry": { "type": "Point", "coordinates": [ -79.30046, 43.67019 ] } },
{ "type": "Feature", "properties": { "Address": "2180 BLOOR STREET WEST", "City": "Toronto", "Province": "Ontario", "latitude": 43.6518299, "longitude": -79.47435, "name": "2180 BLOOR STREET WEST, Toronto, Ontario", "desc": "2180 Bloor St W, Toronto, ON M6S 1N3, Canada", "source": "Bing Maps", "precision": "address" }, "geometry": { "type": "Point", "coordinates": [ -79.47435, 43.6518299 ] } },
{ "type": "Feature", "properties": { "Address": "2151 ST. CLAIR AVE. W.", "City": "Toronto", "Province": "Ontario", "latitude": 43.67089, "longitude": -79.47306, "name": "2151 ST. CLAIR AVE. W., Toronto, Ontario", "desc": "2151 St Clair Ave W, Toronto, ON M6N 1K5, Canada", "source": "Bing Maps", "precision": "address" }, "geometry": { "type": "Point", "coordinates": [ -79.47306, 43.67089 ] } },
{ "type": "Feature", "properties": { "Address": "125 THE QUEENSWAY", "City": "Toronto", "Province": "Ontario", "latitude": 43.63017, "longitude": -79.48151, "name": "125 THE QUEENSWAY, Toronto, Ontario", "desc": "125 The Queensway, Etobicoke, ON M8Y 1H6, Canada", "source": "Bing Maps", "precision": "address" }, "geometry": { "type": "Point", "coordinates": [ -79.48151, 43.63017 ] } },
{ "type": "Feature", "properties": { "Address": "502 LAWRENCE AVENUE WEST", "City": "Toronto", "Province": "Ontario", "latitude": 43.7192215, "longitude": -79.4305983, "name": "502 LAWRENCE AVENUE WEST, Toronto, Ontario", "desc": "502 Lawrence Ave W, North York, ON M6A 1A1, Canada", "source": "Bing Maps", "precision": "address" }, "geometry": { "type": "Point", "coordinates": [ -79.4305983, 43.7192215 ] } },
{ "type": "Feature", "properties": { "Address": "3520 DUNDAS STREET WEST", "City": "Toronto", "Province": "Ontario", "latitude": 43.66619, "longitude": -79.48878, "name": "3520 DUNDAS STREET WEST, Toronto, Ontario", "desc": "3520 Dundas St W, York, ON M6S 2S1, Canada", "source": "Bing Maps", "precision": "address" }, "geometry": { "type": "Point", "coordinates": [ -79.48878, 43.66619 ] } },
{ "type": "Feature", "properties": { "Address": "2218 LAKE SHORE BLVD W", "City": "Toronto", "Province": "Ontario", "latitude": 43.62231, "longitude": -79.48242, "name": "2218 LAKE SHORE BLVD W, Toronto, Ontario", "desc": "2218 Lake Shore Blvd W, Etobicoke, ON M8V 0E3, Canada", "source": "Bing Maps", "precision": "address" }, "geometry": { "type": "Point", "coordinates": [ -79.48242, 43.62231 ] } },
{ "type": "Feature", "properties": { "Address": "3111 DANFORTH AVENUE", "City": "Toronto", "Province": "Ontario", "latitude": 43.69109, "longitude": -79.28581, "name": "3111 DANFORTH AVENUE, Toronto, Ontario", "desc": "3111 Danforth Ave, Scarborough, ON M1L 1A9, Canada", "source": "Bing Maps", "precision": "address" }, "geometry": { "type": "Point", "coordinates": [ -79.28581, 43.69109 ] } },
{ "type": "Feature", "properties": { "Address": "3441 LAWRENCE AVENUE EAST", "City": "Toronto", "Province": "Ontario", "latitude": 43.7586441, "longitude": -79.2301574, "name": "3441 LAWRENCE AVENUE EAST, Toronto, Ontario", "desc": "3441 Lawrence Ave E, Scarborough, ON M1H 1B2, Canada", "source": "Bing Maps", "precision": "address" }, "geometry": { "type": "Point", "coordinates": [ -79.2301574, 43.7586441 ] } },
{ "type": "Feature", "properties": { "Address": "785 MILNER AVENUE", "City": "Toronto", "Province": "Ontario", "latitude": 43.79752, "longitude": -79.2036399, "name": "785 MILNER AVENUE, Toronto, Ontario", "desc": "785 Milner Ave, Scarborough, ON M1B 3C3, Canada", "source": "Bing Maps", "precision": "address" }, "geometry": { "type": "Point", "coordinates": [ -79.2036399, 43.79752 ] } },
{ "type": "Feature", "properties": { "Address": "4525 KINGSTON ROAD", "City": "Toronto", "Province": "Ontario", "latitude": 43.7710852, "longitude": -79.1861016, "name": "4525 KINGSTON ROAD, Toronto, Ontario", "desc": "4525 Kingston Rd, Scarborough, ON M1E 2P1, Canada", "source": "Bing Maps", "precision": "address" }, "geometry": { "type": "Point", "coordinates": [ -79.1861016, 43.7710852 ] } },
{ "type": "Feature", "properties": { "Address": "21 WILLIAM KITCHEN RD H2", "City": "Toronto", "Province": "Ontario", "latitude": 43.7732259, "longitude": -79.28173, "name": "21 WILLIAM KITCHEN RD H2, Toronto, Ontario", "desc": "21 William Kitchen Rd, Scarborough, ON M1P 5B7, Canada", "source": "Bing Maps", "precision": "address" }, "geometry": { "type": "Point", "coordinates": [ -79.28173, 43.7732259 ] } },
{ "type": "Feature", "properties": { "Address": "1571 SANDHURST CIRCLE", "City": "Toronto", "Province": "Ontario", "latitude": 43.8087359, "longitude": -79.2708151, "name": "1571 SANDHURST CIRCLE, Toronto, Ontario", "desc": "1571 Sandhurst Cir, Scarborough, ON M1V 1V2, Canada", "source": "Bing Maps", "precision": "address" }, "geometry": { "type": "Point", "coordinates": [ -79.2708151, 43.8087359 ] } },
{ "type": "Feature", "properties": { "Address": "510 BRIMLEY ROAD", "City": "Toronto", "Province": "Ontario", "latitude": 43.73557, "longitude": -79.24825, "name": "510 BRIMLEY ROAD, Toronto, Ontario", "desc": "510 Brimley Rd, Scarborough, ON M1J 1A7, Canada", "source": "Bing Maps", "precision": "address" }, "geometry": { "type": "Point", "coordinates": [ -79.24825, 43.73557 ] } },
{ "type": "Feature", "properties": { "Address": "2356 KENNEDY ROAD", "City": "Toronto", "Province": "Ontario", "latitude": 43.7848334, "longitude": -79.2892432, "name": "2356 KENNEDY ROAD, Toronto, Ontario", "desc": "2356 Kennedy Rd, Scarborough, ON M1T 3H1, Canada", "source": "Bing Maps", "precision": "address" }, "geometry": { "type": "Point", "coordinates": [ -79.2892432, 43.7848334 ] } },
{ "type": "Feature", "properties": { "Address": "2963 KINGSTON ROAD", "City": "Toronto", "Province": "Ontario", "latitude": 43.7250354, "longitude": -79.2321778, "name": "2963 KINGSTON ROAD, Toronto, Ontario", "desc": "2963 Kingston Rd, Scarborough, ON M1M 1P1, Canada", "source": "Bing Maps", "precision": "address" }, "geometry": { "type": "Point", "coordinates": [ -79.2321778, 43.7250354 ] } },
{ "type": "Feature", "properties": { "Address": "5979 STEELES AVENUE EAST", "City": "Toronto", "Province": "Ontario", "latitude": 43.83508, "longitude": -79.25622, "name": "5979 STEELES AVENUE EAST, Toronto, Ontario", "desc": "5979 Steeles Ave E, Scarborough, ON M1V 5P7, Canada", "source": "Bing Maps", "precision": "address" }, "geometry": { "type": "Point", "coordinates": [ -79.25622, 43.83508 ] } },
{ "type": "Feature", "properties": { "Address": "55 ELLESMERE ROAD", "City": "Toronto", "Province": "Ontario", "latitude": 43.7580546, "longitude": -79.3137754, "name": "55 ELLESMERE ROAD, Toronto, Ontario", "desc": "55 Ellesmere Rd, Scarborough, ON M1R 4B7, Canada", "source": "Bing Maps", "precision": "address" }, "geometry": { "type": "Point", "coordinates": [ -79.3137754, 43.7580546 ] } },
{ "type": "Feature", "properties": { "Address": "1900 EGLINTON AVENUE EAST", "City": "Toronto", "Province": "Ontario", "latitude": 43.72748, "longitude": -79.29387, "name": "1900 EGLINTON AVENUE EAST, Toronto, Ontario", "desc": "1900 Eglinton Ave E, Scarborough, ON M1L 2L9, Canada", "source": "Bing Maps", "precision": "address" }, "geometry": { "type": "Point", "coordinates": [ -79.29387, 43.72748 ] } },
{ "type": "Feature", "properties": { "Address": "5508 LAWRENCE AVENUE EAST", "City": "Toronto", "Province": "Ontario", "latitude": 43.77947, "longitude": -79.13816, "name": "5508 LAWRENCE AVENUE EAST, Toronto, Ontario", "desc": "5508 Lawrence Ave E, Scarborough, ON M1C 3B2, Canada", "source": "Bing Maps", "precision": "address" }, "geometry": { "type": "Point", "coordinates": [ -79.13816, 43.77947 ] } },
{ "type": "Feature", "properties": { "Address": "2946 FINCH AVENUE EAST", "City": "Toronto", "Province": "Ontario", "latitude": 43.7938428, "longitude": -79.3287531, "name": "2946 FINCH AVENUE EAST, Toronto, Ontario", "desc": "2946 Finch Ave E, Scarborough, ON M1W 2T4, Canada", "source": "Bing Maps", "precision": "address" }, "geometry": { "type": "Point", "coordinates": [ -79.3287531, 43.7938428 ] } },
{ "type": "Feature", "properties": { "Address": "1800 SHEPPARD AVENUE EAST", "City": "Toronto", "Province": "Ontario", "latitude": 43.7756067, "longitude": -79.3452447, "name": "1800 SHEPPARD AVENUE EAST, Toronto, Ontario", "desc": "1800 Sheppard Ave E, North York, ON M2J 5A7, Canada", "source": "Bing Maps", "precision": "address" }, "geometry": { "type": "Point", "coordinates": [ -79.3452447, 43.7756067 ] } },
{ "type": "Feature", "properties": { "Address": "195 THE DONWAY WEST", "City": "Toronto", "Province": "Ontario", "latitude": 43.7362899, "longitude": -79.34585, "name": "195 THE DONWAY WEST, Toronto, Ontario", "desc": "195 The Donway W, North York, ON M3C 0H6, Canada", "source": "Bing Maps", "precision": "address" }, "geometry": { "type": "Point", "coordinates": [ -79.34585, 43.7362899 ] } },
{ "type": "Feature", "properties": { "Address": "808 YORK MILLS ROAD", "City": "Toronto", "Province": "Ontario", "latitude": 43.75363, "longitude": -79.35781, "name": "808 YORK MILLS ROAD, Toronto, Ontario", "desc": "808 York Mills Rd, North York, ON M3B 1X8, Canada", "source": "Bing Maps", "precision": "address" }, "geometry": { "type": "Point", "coordinates": [ -79.35781, 43.75363 ] } },
{ "type": "Feature", "properties": { "Address": "3111 DANFORTH AVENUE", "City": "Toronto", "Province": "Ontario", "latitude": 43.69109, "longitude": -79.28581, "name": "3111 DANFORTH AVENUE, Toronto, Ontario", "desc": "3111 Danforth Ave, Scarborough, ON M1L 1A9, Canada", "source": "Bing Maps", "precision": "address" }, "geometry": { "type": "Point", "coordinates": [ -79.28581, 43.69109 ] } },
{ "type": "Feature", "properties": { "Address": "705 KINGSTON ROAD", "City": "Toronto", "Province": "Ontario", "latitude": 43.67904, "longitude": -79.2965399, "name": "705 KINGSTON ROAD, Toronto, Ontario", "desc": "705 Kingston Rd, Toronto, ON M4E 1R6, Canada", "source": "Bing Maps", "precision": "address" }, "geometry": { "type": "Point", "coordinates": [ -79.2965399, 43.67904 ] } },
{ "type": "Feature", "properties": { "Address": "1009 COXWELL AVE", "City": "Toronto", "Province": "Ontario", "latitude": 43.6969, "longitude": -79.32869, "name": "1009 COXWELL AVE, Toronto, Ontario", "desc": "1009 Coxwell Ave, East York, ON M4C 3G4, Canada", "source": "Bing Maps", "precision": "address" }, "geometry": { "type": "Point", "coordinates": [ -79.32869, 43.6969 ] } },
{ "type": "Feature", "properties": { "Address": "45 OVERLEA BOULEVARD", "City": "Toronto", "Province": "Ontario", "latitude": 43.70496, "longitude": -79.349548, "name": "45 OVERLEA BOULEVARD, Toronto, Ontario", "desc": "45 Overlea Blvd, Toronto, ON M4H 1C3, Canada", "source": "Bing Maps", "precision": "address" }, "geometry": { "type": "Point", "coordinates": [ -79.349548, 43.70496 ] } },
{ "type": "Feature", "properties": { "Address": "219 MAIN STREET", "City": "Toronto", "Province": "Ontario", "latitude": 43.686504, "longitude": -79.3008972, "name": "219 MAIN STREET, Toronto, Ontario", "desc": "219 Main St, Toronto, ON M4C, Canada", "source": "Bing Maps", "precision": "address" }, "geometry": { "type": "Point", "coordinates": [ -79.3008972, 43.686504 ] } },
{ "type": "Feature", "properties": { "Address": "2901 BAYVIEW AVENUE - UNIT #125", "City": "Toronto", "Province": "Ontario", "latitude": 43.76922, "longitude": -79.38833, "name": "2901 BAYVIEW AVENUE - UNIT #125, Toronto, Ontario", "desc": "2901 Bayview Ave, North York, ON M2K 1E6, Canada", "source": "Bing Maps", "precision": "address" }, "geometry": { "type": "Point", "coordinates": [ -79.38833, 43.76922 ] } },
{ "type": "Feature", "properties": { "Address": "1563 STEELES AVENUE EAST", "City": "Toronto", "Province": "Ontario", "latitude": 43.8059004, "longitude": -79.3836404, "name": "1563 STEELES AVENUE EAST, Toronto, Ontario", "desc": "1563 Steeles Ave E, North York, ON M2M 3Y7, Canada", "source": "Bing Maps", "precision": "address" }, "geometry": { "type": "Point", "coordinates": [ -79.3836404, 43.8059004 ] } },
{ "type": "Feature", "properties": { "Address": "65 WICKSTEED AVENUE", "City": "Toronto", "Province": "Ontario", "latitude": 43.71053, "longitude": -79.36174, "name": "65 WICKSTEED AVENUE, Toronto, Ontario", "desc": "65 Wicksteed Ave, East York, ON M4G 4H9, Canada", "source": "Bing Maps", "precision": "address" }, "geometry": { "type": "Point", "coordinates": [ -79.36174, 43.71053 ] } },
{ "type": "Feature", "properties": { "Address": "3075 HIGHWAY 7 EAST", "City": "Toronto", "Province": "Ontario", "latitude": 43.67856, "longitude": -79.49751, "name": "3075 HIGHWAY 7 EAST, Toronto, Ontario", "desc": "7 East Dr, York, ON M6N 2N8, Canada", "source": "Bing Maps", "precision": "address" }, "geometry": { "type": "Point", "coordinates": [ -79.49751, 43.67856 ] } },
{ "type": "Feature", "properties": { "Address": "1986 QUEEN STREET EAST", "City": "Toronto", "Province": "Ontario", "latitude": 43.67019, "longitude": -79.30046, "name": "1986 QUEEN STREET EAST, Toronto, Ontario", "desc": "1986 Queen St E, Toronto, ON M4L 1J2, Canada", "source": "Bing Maps", "precision": "address" }, "geometry": { "type": "Point", "coordinates": [ -79.30046, 43.67019 ] } },
{ "type": "Feature", "properties": { "Address": "1145 DANFORTH AVENUE", "City": "Toronto", "Province": "Ontario", "latitude": 43.681, "longitude": -79.33329, "name": "1145 DANFORTH AVENUE, Toronto, Ontario", "desc": "1145 Danforth Ave, Toronto, ON M4J 1M5, Canada", "source": "Bing Maps", "precision": "address" }, "geometry": { "type": "Point", "coordinates": [ -79.33329, 43.681 ] } },
{ "type": "Feature", "properties": { "Address": "1654 QUEEN STREET EAST", "City": "Toronto", "Province": "Ontario", "latitude": 43.667, "longitude": -79.31484, "name": "1654 QUEEN STREET EAST, Toronto, Ontario", "desc": "1654 Queen St E, Toronto, ON M4L 1G3, Canada", "source": "Bing Maps", "precision": "address" }, "geometry": { "type": "Point", "coordinates": [ -79.31484, 43.667 ] } },
{ "type": "Feature", "properties": { "Address": "1524 BAYVIEW AVENUE", "City": "Toronto", "Province": "Ontario", "latitude": 43.7040067, "longitude": -79.3746908, "name": "1524 BAYVIEW AVENUE, Toronto, Ontario", "desc": "1524 Bayview Ave, Toronto, ON M4G 3B4, Canada", "source": "Bing Maps", "precision": "address" }, "geometry": { "type": "Point", "coordinates": [ -79.3746908, 43.7040067 ] } },
{ "type": "Feature", "properties": { "Address": "5095 YONGE STREET A4", "City": "Toronto", "Province": "Ontario", "latitude": 43.76828, "longitude": -79.4122299, "name": "5095 YONGE STREET A4, Toronto, Ontario", "desc": "5095 Yonge St, North York, ON M2N 6Z4, Canada", "source": "Bing Maps", "precision": "address" }, "geometry": { "type": "Point", "coordinates": [ -79.4122299, 43.76828 ] } },
{ "type": "Feature", "properties": { "Address": "932 GERRARD STREET EAST", "City": "Toronto", "Province": "Ontario", "latitude": 43.6682, "longitude": -79.34124, "name": "932 GERRARD STREET EAST, Toronto, Ontario", "desc": "932 Gerrard St E, Toronto, ON M4M 1Z2, Canada", "source": "Bing Maps", "precision": "address" }, "geometry": { "type": "Point", "coordinates": [ -79.34124, 43.6682 ] } },
{ "type": "Feature", "properties": { "Address": "200 DANFORTH AVENUE", "City": "Toronto", "Province": "Ontario", "latitude": 43.677, "longitude": -79.35608, "name": "200 DANFORTH AVENUE, Toronto, Ontario", "desc": "200 Danforth Ave, Toronto, ON M4K 1N5, Canada", "source": "Bing Maps", "precision": "address" }, "geometry": { "type": "Point", "coordinates": [ -79.35608, 43.677 ] } },
{ "type": "Feature", "properties": { "Address": "101 EGLINTON AVENUE EAST", "City": "Toronto", "Province": "Ontario", "latitude": 43.7072, "longitude": -79.39454, "name": "101 EGLINTON AVENUE EAST, Toronto, Ontario", "desc": "101 Eglinton Ave E, Toronto, ON M4P 1H4, Canada", "source": "Bing Maps", "precision": "address" }, "geometry": { "type": "Point", "coordinates": [ -79.39454, 43.7072 ] } },
{ "type": "Feature", "properties": { "Address": "2300 YONGE STREET", "City": "Toronto", "Province": "Ontario", "latitude": 43.70716, "longitude": -79.39904, "name": "2300 YONGE STREET, Toronto, Ontario", "desc": "2300 Yonge St, Toronto, ON M4P 1E4, Canada", "source": "Bing Maps", "precision": "address" }, "geometry": { "type": "Point", "coordinates": [ -79.39904, 43.70716 ] } },
{ "type": "Feature", "properties": { "Address": "1838-1844 AVENUE ROAD", "City": "Toronto", "Province": "Ontario", "latitude": 43.7310666, "longitude": -79.4193402, "name": "1838-1844 AVENUE ROAD, Toronto, Ontario", "desc": "1844 Avenue Rd, North York, ON M5M 3Z5, Canada", "source": "Bing Maps", "precision": "address" }, "geometry": { "type": "Point", "coordinates": [ -79.4193402, 43.7310666 ] } },
{ "type": "Feature", "properties": { "Address": "776 QUEEN STREET EAST", "City": "Toronto", "Province": "Ontario", "latitude": 43.6595846, "longitude": -79.3472403, "name": "776 QUEEN STREET EAST, Toronto, Ontario", "desc": "776 Queen St E, Toronto, ON M4M 1H4, Canada", "source": "Bing Maps", "precision": "address" }, "geometry": { "type": "Point", "coordinates": [ -79.3472403, 43.6595846 ] } },
{ "type": "Feature", "properties": { "Address": "333 EGLINTON AVENUE WEST", "City": "Toronto", "Province": "Ontario", "latitude": 43.70421, "longitude": -79.40912, "name": "333 EGLINTON AVENUE WEST, Toronto, Ontario", "desc": "333 Eglinton Ave W, Toronto, ON M5N 1A1, Canada", "source": "Bing Maps", "precision": "address" }, "geometry": { "type": "Point", "coordinates": [ -79.40912, 43.70421 ] } },
{ "type": "Feature", "properties": { "Address": "512 PARLIAMENT STREET A", "City": "Toronto", "Province": "Ontario", "latitude": 43.6655299, "longitude": -79.36878, "name": "512 PARLIAMENT STREET A, Toronto, Ontario", "desc": "512 Parliament St, Toronto, ON M4X 1P4, Canada", "source": "Bing Maps", "precision": "address" }, "geometry": { "type": "Point", "coordinates": [ -79.36878, 43.6655299 ] } },
{ "type": "Feature", "properties": { "Address": "10 SCRIVENER SQUARE", "City": "Toronto", "Province": "Ontario", "latitude": 43.68079, "longitude": -79.3905, "name": "10 SCRIVENER SQUARE, Toronto, Ontario", "desc": "10 Scrivener Sq, Toronto, ON M4W 3Y9, Canada", "source": "Bing Maps", "precision": "address" }, "geometry": { "type": "Point", "coordinates": [ -79.3905, 43.68079 ] } },
{ "type": "Feature", "properties": { "Address": "111 ST. CLAIR AVENUE WEST", "City": "Toronto", "Province": "Ontario", "latitude": 43.68666, "longitude": -79.3994, "name": "111 ST. CLAIR AVENUE WEST, Toronto, Ontario", "desc": "111 St Clair Ave W, Toronto, ON M4V 1N5, Canada", "source": "Bing Maps", "precision": "address" }, "geometry": { "type": "Point", "coordinates": [ -79.3994, 43.68666 ] } },
{ "type": "Feature", "properties": { "Address": "20 BLOOR STREET EAST", "City": "Toronto", "Province": "Ontario", "latitude": 43.67075, "longitude": -79.3854, "name": "20 BLOOR STREET EAST, Toronto, Ontario", "desc": "20 Bloor St E, Toronto, ON M4W 3G7, Canada", "source": "Bing Maps", "precision": "address" }, "geometry": { "type": "Point", "coordinates": [ -79.3854, 43.67075 ] } },
{ "type": "Feature", "properties": { "Address": "502 LAWRENCE AVENUE WEST", "City": "Toronto", "Province": "Ontario", "latitude": 43.7192215, "longitude": -79.4305983, "name": "502 LAWRENCE AVENUE WEST, Toronto, Ontario", "desc": "502 Lawrence Ave W, North York, ON M6A 1A1, Canada", "source": "Bing Maps", "precision": "address" }, "geometry": { "type": "Point", "coordinates": [ -79.4305983, 43.7192215 ] } },
{ "type": "Feature", "properties": { "Address": "55 BLOOR STREET WEST", "City": "Toronto", "Province": "Ontario", "latitude": 43.66963, "longitude": -79.38864, "name": "55 BLOOR STREET WEST, Toronto, Ontario", "desc": "55 Bloor St W, Toronto, ON M4W, Canada", "source": "Bing Maps", "precision": "address" }, "geometry": { "type": "Point", "coordinates": [ -79.38864, 43.66963 ] } },
{ "type": "Feature", "properties": { "Address": "60 CARLTON ST (SECOND FLOOR)", "City": "Toronto", "Province": "Ontario", "latitude": 43.66198, "longitude": -79.37985, "name": "60 CARLTON ST (SECOND FLOOR), Toronto, Ontario", "desc": "60 Carlton St, Toronto, ON M5B 1J2, Canada", "source": "Bing Maps", "precision": "address" }, "geometry": { "type": "Point", "coordinates": [ -79.37985, 43.66198 ] } },
{ "type": "Feature", "properties": { "Address": "547 YONGE STREET", "City": "Toronto", "Province": "Ontario", "latitude": 43.6646365, "longitude": -79.3842506, "name": "547 YONGE STREET, Toronto, Ontario", "desc": "547 Yonge St, Toronto, ON M4Y 1Y5, Canada", "source": "Bing Maps", "precision": "address" }, "geometry": { "type": "Point", "coordinates": [ -79.3842506, 43.6646365 ] } },
{ "type": "Feature", "properties": { "Address": "908 ST. CLAIR AVENUE WEST", "City": "Toronto", "Province": "Ontario", "latitude": 43.68023, "longitude": -79.43392, "name": "908 ST. CLAIR AVENUE WEST, Toronto, Ontario", "desc": "908 St Clair Ave W, Toronto, ON M6C 1C6, Canada", "source": "Bing Maps", "precision": "address" }, "geometry": { "type": "Point", "coordinates": [ -79.43392, 43.68023 ] } },
{ "type": "Feature", "properties": { "Address": "1339 LAWRENCE AVE. WEST", "City": "Toronto", "Province": "Ontario", "latitude": 43.70938, "longitude": -79.47509, "name": "1339 LAWRENCE AVE. WEST, Toronto, Ontario", "desc": "1339 Lawrence Ave W, North York, ON M6L 1A4, Canada", "source": "Bing Maps", "precision": "address" }, "geometry": { "type": "Point", "coordinates": [ -79.47509, 43.70938 ] } },
{ "type": "Feature", "properties": { "Address": "396 ST. CLAIR AVE. WEST", "City": "Toronto", "Province": "Ontario", "latitude": 43.68408, "longitude": -79.41527, "name": "396 ST. CLAIR AVE. WEST, Toronto, Ontario", "desc": "396 St Clair Ave W, Toronto, ON M5P 1N4, Canada", "source": "Bing Maps", "precision": "address" }, "geometry": { "type": "Point", "coordinates": [ -79.41527, 43.68408 ] } },
{ "type": "Feature", "properties": { "Address": "420 SPADINA ROAD", "City": "Toronto", "Province": "Ontario", "latitude": 43.68883, "longitude": -79.413, "name": "420 SPADINA ROAD, Toronto, Ontario", "desc": "420 Spadina Rd, Toronto, ON M5P 2W4, Canada", "source": "Bing Maps", "precision": "address" }, "geometry": { "type": "Point", "coordinates": [ -79.413, 43.68883 ] } },
{ "type": "Feature", "properties": { "Address": "1245 DUPONT STREET", "City": "Toronto", "Province": "Ontario", "latitude": 43.66751, "longitude": -79.44172, "name": "1245 DUPONT STREET, Toronto, Ontario", "desc": "1245 Dupont St, Toronto, ON M6H 2A5, Canada", "source": "Bing Maps", "precision": "address" }, "geometry": { "type": "Point", "coordinates": [ -79.44172, 43.66751 ] } },
{ "type": "Feature", "properties": { "Address": "2151 ST. CLAIR AVE. W.", "City": "Toronto", "Province": "Ontario", "latitude": 43.67089, "longitude": -79.47306, "name": "2151 ST. CLAIR AVE. W., Toronto, Ontario", "desc": "2151 St Clair Ave W, Toronto, ON M6N 1K5, Canada", "source": "Bing Maps", "precision": "address" }, "geometry": { "type": "Point", "coordinates": [ -79.47306, 43.67089 ] } },
{ "type": "Feature", "properties": { "Address": "2803 DUNDAS ST W TORONTO", "City": "Toronto", "Province": "Ontario", "latitude": 43.66519, "longitude": -79.46287, "name": "2803 DUNDAS ST W TORONTO, Toronto, Ontario", "desc": "2803 Dundas St W, Toronto, ON M6P 1Y6, Canada", "source": "Bing Maps", "precision": "address" }, "geometry": { "type": "Point", "coordinates": [ -79.46287, 43.66519 ] } },
{ "type": "Feature", "properties": { "Address": "675 WILSON AVENUE", "City": "Toronto", "Province": "Ontario", "latitude": 43.7327, "longitude": -79.45464, "name": "675 WILSON AVENUE, Toronto, Ontario", "desc": "675 Wilson Ave, North York, ON M3K 1E3, Canada", "source": "Bing Maps", "precision": "address" }, "geometry": { "type": "Point", "coordinates": [ -79.45464, 43.7327 ] } },
{ "type": "Feature", "properties": { "Address": "232 DUPONT STREET", "City": "Toronto", "Province": "Ontario", "latitude": 43.67543, "longitude": -79.40558, "name": "232 DUPONT STREET, Toronto, Ontario", "desc": "232 Dupont St, Toronto, ON M5R 1V7, Canada", "source": "Bing Maps", "precision": "address" }, "geometry": { "type": "Point", "coordinates": [ -79.40558, 43.67543 ] } },
{ "type": "Feature", "properties": { "Address": "879 BLOOR STREET WEST", "City": "Toronto", "Province": "Ontario", "latitude": 43.6618799, "longitude": -79.42504, "name": "879 BLOOR STREET WEST, Toronto, Ontario", "desc": "879 Bloor St W, Toronto, ON M6G 1M4, Canada", "source": "Bing Maps", "precision": "address" }, "geometry": { "type": "Point", "coordinates": [ -79.42504, 43.6618799 ] } },
{ "type": "Feature", "properties": { "Address": "2290 DUNDAS STREET WEST", "City": "Toronto", "Province": "Ontario", "latitude": 43.65507, "longitude": -79.45178, "name": "2290 DUNDAS STREET WEST, Toronto, Ontario", "desc": "2290 Dundas St W, Toronto, ON M6R 1X4, Canada", "source": "Bing Maps", "precision": "address" }, "geometry": { "type": "Point", "coordinates": [ -79.45178, 43.65507 ] } },
{ "type": "Feature", "properties": { "Address": "3520 DUNDAS STREET WEST", "City": "Toronto", "Province": "Ontario", "latitude": 43.66619, "longitude": -79.48878, "name": "3520 DUNDAS STREET WEST, Toronto, Ontario", "desc": "3520 Dundas St W, York, ON M6S 2S1, Canada", "source": "Bing Maps", "precision": "address" }, "geometry": { "type": "Point", "coordinates": [ -79.48878, 43.66619 ] } },
{ "type": "Feature", "properties": { "Address": "2180 BLOOR STREET WEST", "City": "Toronto", "Province": "Ontario", "latitude": 43.6518299, "longitude": -79.47435, "name": "2180 BLOOR STREET WEST, Toronto, Ontario", "desc": "2180 Bloor St W, Toronto, ON M6S 1N3, Canada", "source": "Bing Maps", "precision": "address" }, "geometry": { "type": "Point", "coordinates": [ -79.47435, 43.6518299 ] } },
{ "type": "Feature", "properties": { "Address": "549 COLLEGE STREET", "City": "Toronto", "Province": "Ontario", "latitude": 43.65532, "longitude": -79.41176, "name": "549 COLLEGE STREET, Toronto, Ontario", "desc": "549 College St, Toronto, ON M6G 1A9, Canada", "source": "Bing Maps", "precision": "address" }, "geometry": { "type": "Point", "coordinates": [ -79.41176, 43.65532 ] } },
{ "type": "Feature", "properties": { "Address": "1230 DUNDAS STREET WEST", "City": "Toronto", "Province": "Ontario", "latitude": 43.64965, "longitude": -79.4235099, "name": "1230 DUNDAS STREET WEST, Toronto, Ontario", "desc": "1230 Dundas St W, Toronto, ON M6J 1X5, Canada", "source": "Bing Maps", "precision": "address" }, "geometry": { "type": "Point", "coordinates": [ -79.4235099, 43.64965 ] } },
{ "type": "Feature", "properties": { "Address": "1618 WILSON AVENUE", "City": "Toronto", "Province": "Ontario", "latitude": 43.72068, "longitude": -79.51094, "name": "1618 WILSON AVENUE, Toronto, Ontario", "desc": "1618 Wilson Ave, North York, ON M3L 1A3, Canada", "source": "Bing Maps", "precision": "address" }, "geometry": { "type": "Point", "coordinates": [ -79.51094, 43.72068 ] } },
{ "type": "Feature", "properties": { "Address": "1357 QUEEN ST. W.", "City": "Toronto", "Province": "Ontario", "latitude": 43.6407, "longitude": -79.43486, "name": "1357 QUEEN ST. W., Toronto, Ontario", "desc": "1357 Queen St W, Toronto, ON M6K 1M1, Canada", "source": "Bing Maps", "precision": "address" }, "geometry": { "type": "Point", "coordinates": [ -79.43486, 43.6407 ] } },
{ "type": "Feature", "properties": { "Address": "337 SPADINA AVENUE", "City": "Toronto", "Province": "Ontario", "latitude": 43.65486, "longitude": -79.39841, "name": "337 SPADINA AVENUE, Toronto, Ontario", "desc": "337 Spadina Ave, Toronto, ON M5T 2E9, Canada", "source": "Bing Maps", "precision": "address" }, "geometry": { "type": "Point", "coordinates": [ -79.39841, 43.65486 ] } },
{ "type": "Feature", "properties": { "Address": "777 BAY STREET", "City": "Toronto", "Province": "Ontario", "latitude": 43.660323, "longitude": -79.385445, "name": "777 BAY STREET, Toronto, Ontario", "desc": "777 Bay St, Toronto, ON M5G 2C8, Canada", "source": "Bing Maps", "precision": "address" }, "geometry": { "type": "Point", "coordinates": [ -79.385445, 43.660323 ] } },
{ "type": "Feature", "properties": { "Address": "619 QUEEN STREET WEST", "City": "Toronto", "Province": "Ontario", "latitude": 43.64728, "longitude": -79.40272, "name": "619 QUEEN STREET WEST, Toronto, Ontario", "desc": "619 Queen St W, Toronto, ON M5V 2B7, Canada", "source": "Bing Maps", "precision": "address" }, "geometry": { "type": "Point", "coordinates": [ -79.40272, 43.64728 ] } },
{ "type": "Feature", "properties": { "Address": "259 THE KINGSWAY", "City": "Toronto", "Province": "Ontario", "latitude": 43.6612, "longitude": -79.5183, "name": "259 THE KINGSWAY, Toronto, Ontario", "desc": "259 The Kingsway, Etobicoke, ON M9A 3T6, Canada", "source": "Bing Maps", "precision": "address" }, "geometry": { "type": "Point", "coordinates": [ -79.5183, 43.6612 ] } },
{ "type": "Feature", "properties": { "Address": "2625D WESTON ROAD", "City": "Toronto", "Province": "Ontario", "latitude": 43.7118104, "longitude": -79.5351833, "name": "2625D WESTON ROAD, Toronto, Ontario", "desc": "2625 Weston Rd, North York, ON M9N 3X2, Canada", "source": "Bing Maps", "precision": "address" }, "geometry": { "type": "Point", "coordinates": [ -79.5351833, 43.7118104 ] } },
{ "type": "Feature", "properties": { "Address": "2946 BLOOR STREET WEST", "City": "Toronto", "Province": "Ontario", "latitude": 43.6484, "longitude": -79.508, "name": "2946 BLOOR STREET WEST, Toronto, Ontario", "desc": "2946 Bloor St W, Etobicoke, ON M8X 1B7, Canada", "source": "Bing Maps", "precision": "address" }, "geometry": { "type": "Point", "coordinates": [ -79.508, 43.6484 ] } },
{ "type": "Feature", "properties": { "Address": "595 BAY STREET", "City": "Toronto", "Province": "Ontario", "latitude": 43.65621, "longitude": -79.38326, "name": "595 BAY STREET, Toronto, Ontario", "desc": "595 Bay St, Toronto, ON M5G 2C2, Canada", "source": "Bing Maps", "precision": "address" }, "geometry": { "type": "Point", "coordinates": [ -79.38326, 43.65621 ] } },
{ "type": "Feature", "properties": { "Address": "1115 LODESTAR ROAD", "City": "Toronto", "Province": "Ontario", "latitude": 43.75922, "longitude": -79.46628, "name": "1115 LODESTAR ROAD, Toronto, Ontario", "desc": "1115 Lodestar Rd, North York, ON M3J 0G9, Canada", "source": "Bing Maps", "precision": "address" }, "geometry": { "type": "Point", "coordinates": [ -79.46628, 43.75922 ] } },
{ "type": "Feature", "properties": { "Address": "415 KING STREET WEST", "City": "Toronto", "Province": "Ontario", "latitude": 43.64529, "longitude": -79.39437, "name": "415 KING STREET WEST, Toronto, Ontario", "desc": "415 King St W, Toronto, ON M5V 1K1, Canada", "source": "Bing Maps", "precision": "address" }, "geometry": { "type": "Point", "coordinates": [ -79.39437, 43.64529 ] } },
{ "type": "Feature", "properties": { "Address": "100 KING STREET WEST", "City": "Toronto", "Province": "Ontario", "latitude": 43.64877, "longitude": -79.38167, "name": "100 KING STREET WEST, Toronto, Ontario", "desc": "100 King St W, Toronto, ON M5X, Canada", "source": "Bing Maps", "precision": "address" }, "geometry": { "type": "Point", "coordinates": [ -79.38167, 43.64877 ] } },
{ "type": "Feature", "properties": { "Address": "125 THE QUEENSWAY", "City": "Toronto", "Province": "Ontario", "latitude": 43.63017, "longitude": -79.48151, "name": "125 THE QUEENSWAY, Toronto, Ontario", "desc": "125 The Queensway, Etobicoke, ON M8Y 1H6, Canada", "source": "Bing Maps", "precision": "address" }, "geometry": { "type": "Point", "coordinates": [ -79.48151, 43.63017 ] } },
{ "type": "Feature", "properties": { "Address": "15 YORK STREET", "City": "Toronto", "Province": "Ontario", "latitude": 43.64234, "longitude": -79.38083, "name": "15 YORK STREET, Toronto, Ontario", "desc": "15 York St, Toronto, ON M5J 0A3, Canada", "source": "Bing Maps", "precision": "address" }, "geometry": { "type": "Point", "coordinates": [ -79.38083, 43.64234 ] } },
{ "type": "Feature", "properties": { "Address": "87 FRONT STREET E.", "City": "Toronto", "Province": "Ontario", "latitude": 43.64875, "longitude": -79.3721599, "name": "87 FRONT STREET E., Toronto, Ontario", "desc": "87 Front St E, Toronto, ON M5E 1B8, Canada", "source": "Bing Maps", "precision": "address" }, "geometry": { "type": "Point", "coordinates": [ -79.3721599, 43.64875 ] } },
{ "type": "Feature", "properties": { "Address": "222 FRONT STREET EAST", "City": "Toronto", "Province": "Ontario", "latitude": 43.65111, "longitude": -79.36545, "name": "222 FRONT STREET EAST, Toronto, Ontario", "desc": "222 Front St E, Toronto, ON M5A 4T9, Canada", "source": "Bing Maps", "precision": "address" }, "geometry": { "type": "Point", "coordinates": [ -79.36545, 43.65111 ] } },
{ "type": "Feature", "properties": { "Address": "2218 LAKE SHORE BLVD W", "City": "Toronto", "Province": "Ontario", "latitude": 43.62231, "longitude": -79.48242, "name": "2218 LAKE SHORE BLVD W, Toronto, Ontario", "desc": "2218 Lake Shore Blvd W, Etobicoke, ON M8V 0E3, Canada", "source": "Bing Maps", "precision": "address" }, "geometry": { "type": "Point", "coordinates": [ -79.48242, 43.62231 ] } },
{ "type": "Feature", "properties": { "Address": "1090 THE QUEENSWAY", "City": "Toronto", "Province": "Ontario", "latitude": 43.62332, "longitude": -79.51821, "name": "1090 THE QUEENSWAY, Toronto, Ontario", "desc": "1090 The Queensway, Etobicoke, ON M8Z 1P7, Canada", "source": "Bing Maps", "precision": "address" }, "geometry": { "type": "Point", "coordinates": [ -79.51821, 43.62332 ] } },
{ "type": "Feature", "properties": { "Address": "2762 LAKE SHORE BOULEVARD WEST", "City": "Toronto", "Province": "Ontario", "latitude": 43.60239, "longitude": -79.49934, "name": "2762 LAKE SHORE BOULEVARD WEST, Toronto, Ontario", "desc": "2762 Lake Shore Blvd W, Etobicoke, ON M8V 1H1, Canada", "source": "Bing Maps", "precision": "address" }, "geometry": { "type": "Point", "coordinates": [ -79.49934, 43.60239 ] } },
{ "type": "Feature", "properties": { "Address": "250 THE EAST MALL", "City": "Toronto", "Province": "Ontario", "latitude": 43.63242, "longitude": -79.55443, "name": "250 THE EAST MALL, Toronto, Ontario", "desc": "250 The East Mall, Toronto, ON M9B, Canada", "source": "Bing Maps", "precision": "address" }, "geometry": { "type": "Point", "coordinates": [ -79.55443, 43.63242 ] } },
{ "type": "Feature", "properties": { "Address": "3730 LAKESHORE BLVD. WEST", "City": "Toronto", "Province": "Ontario", "latitude": 43.5934949, "longitude": -79.5383611, "name": "3730 LAKESHORE BLVD. WEST, Toronto, Ontario", "desc": "3730 Lake Shore Blvd W, Etobicoke, ON M8W 1N6, Canada", "source": "Bing Maps", "precision": "address" }, "geometry": { "type": "Point", "coordinates": [ -79.5383611, 43.5934949 ] } },
{ "type": "Feature", "properties": { "Address": "1750 THE QUEENSWAY", "City": "Toronto", "Province": "Ontario", "latitude": 43.61522, "longitude": -79.5575, "name": "1750 THE QUEENSWAY, Toronto, Ontario", "desc": "1750 The Queensway, Etobicoke, ON M9C 5H5, Canada", "source": "Bing Maps", "precision": "address" }, "geometry": { "type": "Point", "coordinates": [ -79.5575, 43.61522 ] } },
{ "type": "Feature", "properties": { "Address": "1520 DUNDAS STREET EAST", "City": "Toronto", "Province": "Ontario", "latitude": 43.6669028, "longitude": -79.3315731, "name": "1520 DUNDAS STREET EAST, Toronto, Ontario", "desc": "1520 Dundas St E, Toronto, ON M4L, Canada", "source": "Bing Maps", "precision": "address" }, "geometry": { "type": "Point", "coordinates": [ -79.3315731, 43.6669028 ] } },
{ "type": "Feature", "properties": { "Address": "662 BURNHAMTHORPE ROAD", "City": "Toronto", "Province": "Ontario", "latitude": 43.64203, "longitude": -79.5761, "name": "662 BURNHAMTHORPE ROAD, Toronto, Ontario", "desc": "662 Burnhamthorpe Rd, Etobicoke, ON M9C, Canada", "source": "Bing Maps", "precision": "address" }, "geometry": { "type": "Point", "coordinates": [ -79.5761, 43.64203 ] } },
{ "type": "Feature", "properties": { "Address": "211 LLOYD MANOR ROAD", "City": "Toronto", "Province": "Ontario", "latitude": 43.67531, "longitude": -79.55682, "name": "211 LLOYD MANOR ROAD, Toronto, Ontario", "desc": "211 Lloyd Manor Rd, Etobicoke, ON M9B 6H6, Canada", "source": "Bing Maps", "precision": "address" }, "geometry": { "type": "Point", "coordinates": [ -79.55682, 43.67531 ] } },
{ "type": "Feature", "properties": { "Address": "415 THE WESTWAY", "City": "Toronto", "Province": "Ontario", "latitude": 43.68311, "longitude": -79.5655699, "name": "415 THE WESTWAY, Toronto, Ontario", "desc": "415 The Westway, Etobicoke, ON M9R 1H5, Canada", "source": "Bing Maps", "precision": "address" }, "geometry": { "type": "Point", "coordinates": [ -79.5655699, 43.68311 ] } },
{ "type": "Feature", "properties": { "Address": "200 LAKESHORE ROAD EAST", "City": "Toronto", "Province": "Ontario", "latitude": 43.6465432, "longitude": -79.3673714, "name": "200 LAKESHORE ROAD EAST, Toronto, Ontario", "desc": "200 Lake Shore Blvd E, Toronto, ON M5A, Canada", "source": "Bing Maps", "precision": "address" }, "geometry": { "type": "Point", "coordinates": [ -79.3673714, 43.6465432 ] } },
{ "type": "Feature", "properties": { "Address": "65 SQUARE ONE DRIVE", "City": "Toronto", "Province": "Ontario", "latitude": 43.62897, "longitude": -79.50603, "name": "65 SQUARE ONE DRIVE, Toronto, Ontario", "desc": "65 Uno Dr, Etobicoke, ON M8Z 3P1, Canada", "source": "Bing Maps", "precision": "address" }, "geometry": { "type": "Point", "coordinates": [ -79.50603, 43.62897 ] } },
{ "type": "Feature", "properties": { "Address": "2 COOPER STREET", "City": "Toronto", "Province": "Ontario", "latitude": 43.64319, "longitude": -79.37174, "name": "2 COOPER STREET, Toronto, Ontario", "desc": "2 Cooper St, Toronto, ON M5E 0B8, Canada", "source": "Bing Maps", "precision": "address" }, "geometry": { "type": "Point", "coordinates": [ -79.37174, 43.64319 ] } },
{ "type": "Feature", "properties": { "Address": "1530 ALBION ROAD", "City": "Toronto", "Province": "Ontario", "latitude": 43.7405538, "longitude": -79.5849457, "name": "1530 ALBION ROAD, Toronto, Ontario", "desc": "1530 Albion Rd, Etobicoke, ON M9V 1B4, Canada", "source": "Bing Maps", "precision": "address" }, "geometry": { "type": "Point", "coordinates": [ -79.5849457, 43.7405538 ] } },
{ "type": "Feature", "properties": { "Address": "1 YORK GATE BOULEVARD", "City": "Toronto", "Province": "Ontario", "latitude": 43.7575592, "longitude": -79.5208943, "name": "1 YORK GATE BOULEVARD, Toronto, Ontario", "desc": "1 York Gate Blvd, North York, ON M3N 3A1, Canada", "source": "Bing Maps", "precision": "address" }, "geometry": { "type": "Point", "coordinates": [ -79.5208943, 43.7575592 ] } },
{ "type": "Feature", "properties": { "Address": "2181 STEELES AVE W UNIT 17", "City": "Toronto", "Province": "Ontario", "latitude": 43.78475, "longitude": -79.47627, "name": "2181 STEELES AVE W UNIT 17, Toronto, Ontario", "desc": "2181 Steeles Ave W, Toronto, ON M3J 3N2, Canada", "source": "Bing Maps", "precision": "address" }, "geometry": { "type": "Point", "coordinates": [ -79.47627, 43.78475 ] } },
{ "type": "Feature", "properties": { "Address": "80 PEEL CENTRE DRIVE", "City": "Toronto", "Province": "Ontario", "latitude": 43.6439609, "longitude": -79.4290032, "name": "80 PEEL CENTRE DRIVE, Toronto, Ontario", "desc": "80 Peel Ave, Toronto, ON M6J, Canada", "source": "Bing Maps", "precision": "address" }, "geometry": { "type": "Point", "coordinates": [ -79.4290032, 43.6439609 ] } },
{ "type": "Feature", "properties": { "Address": "545 STEELES AVE. E.", "City": "Toronto", "Province": "Ontario", "latitude": 43.7991016, "longitude": -79.1391477, "name": "545 STEELES AVE. E., Toronto, Ontario", "desc": "545 East Ave, Scarborough, ON M1C, Canada", "source": "Bing Maps", "precision": "address" }, "geometry": { "type": "Point", "coordinates": [ -79.1391477, 43.7991016 ] } }
]
}
